{
    "company": "WINSTON & STRAWN",
    "offices": [
        {
            "location": "WASHINGTON",
            "address": "1400 L STREET, N.W.",
            "city": "WASHINGTON, DC",
            "zip": "20005-3502"
        },
        {
            "location": "CHICAGO",
            "address": "35 WEST WACKER DRIVE",
            "city": "CHICAGO, ILLINOIS",
            "zip": "60601-9703"
        },
        {
            "location": "NEW YORK",
            "address": "200 Park Avenue",
            "city": "NEW YORK, NY",
            "zip": "10166-4193"
        },
        {
            "location": "GENEVA",
            "address": "43 RUE DU RHONE",
            "city": "GENEVA",
            "zip": "1204",
            "country": "SWITZERLAND"
        },
        {
            "location": "SAUDI ARABIA",
            "address": "SULAYMANIYAE CENTER, P.O. BOX 22166",
            "city": "RIYADH",
            "zip": "11495",
            "country": "SAUDI ARABIA"
        }
    ],
    "contact": {
        "name": "Thomas J. Frederick",
        "fax": "312558-5983",
        "date": "December 15, 1997"
    },
    "recipients": [
        {
            "name": "STACY RAINEY",
            "address": "1200 Main Street",
            "city": "Kansas City",
            "firm": "Shook Hardy Bacon",
            "fax": "816/421-5547",
            "conf": "816/391-5599"
        },
        {
            "name": "JOEN MULDERIG",
            "address": "120 Park Avenue",
            "city": "New York",
            "firm": "Philip Morris",
            "fax": "212/907-5796",
            "conf": "212/880-5000"
        },
        {
            "name": "LANREMCE BARTH",
            "address": "355 South Grand Ave. 35th Floor",
            "city": "Los Angeles",
            "firm": "Munger Tolles & Olson",
            "fax": "213/687-3702",
            "conf": "213/683-9187"
        },
        {
            "name": "KIM FUTRN",
            "address": "51 West 52nd St.",
            "city": "New York",
            "firm": "Wachtell, Lipton, Rosen & Katz",
            "fax": "212/403-2000",
            "conf": "212/403-1364"
        },
        {
            "name": "LONNIE NUNLEY",
            "address": "Riverfront Plaza, East Tower, 951 Byrd St.",
            "city": "Richmond",
            "firm": "Hunton Williams",
            "fax": "804/344-8822",
            "conf": "804/788-8200"
        }
    ],
    "note": "If you do not receive all the pages, please call our facsimile operator at (312) 558-5948 as soon as possible."
}