{
    "lawFirm": "Munger, Tolles & Olson LLP",
    "address": {
        "street": "355 South Grand Avenue, 35th Floor",
        "city": "Los Angeles",
        "state": "California",
        "zip": "90071-1560"
    },
    "contact": {
        "telephone": "(213) 683-9100",
        "facsimile": "213-687-370"
    },
    "message": {
        "date": "September 13, 1999",
        "from": "Daniel P. Collins",
        "subject": "Tobacco Cases / Coordination",
        "clientNo": "08873-00046",
        "numberOfPages": 7
    },
    "recipients": [
        {
            "name": "Steven B. Rissman",
            "company": "Philip Morris Companies",
            "phone": "(917) 663-5979"
        },
        {
            "name": "John Mulderig",
            "company": "Philip Morris Companies",
            "phone": "(917) 663-2267"
        },
        {
            "name": "David Florendo",
            "company": "Philip Morris Companies"
        },
        {
            "name": "Chris Nolan",
            "company": "Philip Morris Companies"
        },
        {
            "name": "Martin D. Ben",
            "company": "Philip Morris Companies",
            "phone": "415-512-4077"
        },
        {
            "name": "Thomas J. Frederick",
            "company": "Philip Morris Companies",
            "phone": "(312) 558-5700"
        },
        {
            "name": "Julie A. Bauer",
            "company": "Winston & Strawn",
            "location": "Chicago"
        },
        {
            "name": "Joseph J. Zaknoen",
            "company": "Winston & Strawn",
            "location": "Chicago"
        },
        {
            "name": "Luke A. Palese",
            "company": "Winston & Strawn",
            "location": "Chicago"
        },
        {
            "name": "Michael Baker",
            "company": "Shook Hardy & Bacon",
            "location": "Kansas City",
            "phone": "(816) 421-2708"
        }
    ],
    "receivedTime": "September 13, 4:31 PM",
    "printTime": "September 13, 4:33 PM"
}