{
    "faxDetails": {
        "date": "FEB-03-98",
        "time": "10:54",
        "sender": {
            "name": "GOODWIN, PROCTER & HOAR LLP",
            "address": "EXCHANGE PLACE, BOSTON, MA 02109",
            "phone": "6175701000",
            "fax": "6175708150",
            "from": "Thomas J. Griffin Jr. Esq",
            "floor": "21st",
            "attorney": true
        },
        "recipients": [
            {
                "name": "Gregory G. Little Esq",
                "firm": "Philip Morris Companies Inc",
                "location": {
                    "city": "New York",
                    "state": "NY",
                    "country": "USA"
                },
                "fax": "2129075979",
                "phone": "2128782267"
            },
            {
                "name": "Stephen J. Krigbaum Esq",
                "firm": "Carlton Fields",
                "location": {
                    "city": "West Palm Beach",
                    "state": "FL",
                    "country": "USA"
                },
                "fax": "5616597368",
                "phone": "5616597070"
            },
            {
                "name": "Steen B. Rissman Esq",
                "firm": "Philip Morris Companies Inc",
                "location": {
                    "city": "New York",
                    "state": "NY",
                    "country": "USA"
                },
                "fax": "2129075979",
                "phone": "2128803310"
            },
            {
                "name": "Barbara Robbins, Esq",
                "firm": "Wachtell, Lipton Rosen",
                "location": {
                    "city": "New York",
                    "state": "NY",
                    "country": "USA"
                },
                "fax": "2124032268",
                "phone": "2124031258"
            }
        ],
        "specialInstructions": {
            "operator": "",
            "time": "0:53",
            "amPm": "AM",
            "date": "January 3, 1998",
            "contact": "6175708126"
        },
        "message": "THE INFORMATION CONTAINED IN THIS FAX MESSAGE IS INTENDED ONLY FOR THE PERSONAL AND CONFIDENTIAL USE OF THE DESIGNATED RECIPIENTS NAMED BELOW. THIS MESSAGE MAY BE AN ATTORNEY-CLIENT COMMUNICATION, AND AS SUCH IS PRIVILEGED AND CONFIDENTIAL. IF THE READER OF THIS MESSAGE IS NOT THE INTENDED RECIPIENT OR AN AGENT RETURN THE ORIGINAL MESSAGE TO US BY MAIL. THANK YOU.",
        "totalPages": 7
    }
}