{
    "lawFirm": "Munger, Tolles & Olson LLP",
    "address": {
        "street": "33 New Montgomery Street, 19th Floor",
        "city": "San Francisco",
        "state": "CA",
        "zip": "94105"
    },
    "contact": {
        "telephone": "(415) 512-4000",
        "facsimile": "(415) 512-4077"
    },
    "message": {
        "disclaimer": "If the reader of this message is not the intended recipient or the employee or agent responsible for delivering the message to the intended recipient, you are hereby notified that any dissemination, distribution or copying of this communication is strictly prohibited. If you have received this communication in error, please notify us immediately by telephone (collect), and return the original message to us at the above address via the U.S. Postal Services. Thank you."
    },
    "from": "Martin D. Bern",
    "date": "July 14, 1999",
    "subject": "Tobacco Cases / Coordination",
    "clientNo": "08873-00046",
    "numberOfPages": "including Cover Sheet",
    "attorneys": [
        {
            "name": "Gregory G. Litti",
            "company": "Philip Morris Companies",
            "phone": "917063-5979"
        },
        {
            "name": "Steven E. Rissman",
            "company": "Philip Morris Companies",
            "phone": "017663-2267"
        },
        {
            "name": "Stephen Krigbaum",
            "company": "Philip Morris Companies"
        },
        {
            "name": "Gregory P. Stone",
            "company": "Munger, Tolles & Olson LLP",
            "location": "Los Angeles"
        },
        {
            "name": "Daniel P. Collins",
            "company": "Munger, Tolles & Olson LLP",
            "location": "Los Angeles"
        },
        {
            "name": "Gerald McMahon",
            "company": "Philip Morris Companies",
            "phone": "619685-3100"
        },
        {
            "name": "Daniel Eaton",
            "company": "Setzer Capan Wilkins & McMahon",
            "location": "San Diego"
        },
        {
            "name": "Murray R. Garnick",
            "company": "Philip Morris Companies",
            "phone": "(202) 942-5999"
        },
        {
            "name": "Anne McBride Walker",
            "company": "Philip Morris Companies",
            "phone": "202942-5673"
        },
        {
            "name": "David Eggort",
            "company": "Philip Morris Companies",
            "phone": "202942-5697"
        },
        {
            "name": "Maurice A. Leiter",
            "company": "Philip Morris Companies",
            "phone": "213243-4189"
        },
        {
            "name": "Jamie Speyer",
            "company": "Arnold & Porter",
            "location": "Los Angeles"
        },
        {
            "name": "Curtis M. Caton",
            "company": "Philip Morris Companies",
            "phone": "(415) 772-6268"
        },
        {
            "name": "Christopher Stoll",
            "company": "Heller Ehrman White",
            "location": "San Francisco"
        },
        {
            "name": "Anna McLean",
            "company": "Heller Ehrman White",
            "location": "San Francisco"
        },
        {
            "name": "Dana Ballinger",
            "company": "Heller Ehrman White",
            "location": "San Francisco"
        },
        {
            "name": "John W. Phillips",
            "company": "Philip Morris Companies",
            "phone": "206447-0849"
        }
    ],
    "additionalInfo": {
        "HellerEhrmanWhite": {
            "location": "Seattle",
            "phone": "2075774030"
        },
        "code": "[562398.1"
    }
}